[
    {
      "id": 1,
      "name": "Jordan Dupont",
      "image": "https://picsum.photos/seed/user1/200",
      "lat": 50.864793,
      "long": 4.336394
    },
    {
      "id": 2,
      "name": "Casey Willems",
      "image": "https://picsum.photos/seed/user2/200",
      "lat": 50.860902,
      "long": 4.375231
    },
    {
      "id": 3,
      "name": "Taylor Rousseau",
      "image": "https://picsum.photos/seed/user3/200",
      "lat": 50.845615,
      "long": 4.323488
    },
    {
      "id": 4,
      "name": "Morgan Dubois",
      "image": "https://picsum.photos/seed/user4/200",
      "lat": 50.850621,
      "long": 4.323292
    },
    {
      "id": 5,
      "name": "Morgan Carpentier",
      "image": "https://picsum.photos/seed/user5/200",
      "lat": 50.845471,
      "long": 4.348653
    },
    {
      "id": 6,
      "name": "Jamie Dupont",
      "image": "https://picsum.photos/seed/user6/200",
      "lat": 50.865828,
      "long": 4.33128
    },
    {
      "id": 7,
      "name": "Avery Simons",
      "image": "https://picsum.photos/seed/user7/200",
      "lat": 50.836972,
      "long": 4.334619
    },
    {
      "id": 8,
      "name": "Pat Willems",
      "image": "https://picsum.photos/seed/user8/200",
      "lat": 50.825865,
      "long": 4.327503
    },
    {
      "id": 9,
      "name": "Robin Leclerc",
      "image": "https://picsum.photos/seed/user9/200",
      "lat": 50.836171,
      "long": 4.324307
    },
    {
      "id": 10,
      "name": "Quinn Carpentier",
      "image": "https://picsum.photos/seed/user10/200",
      "lat": 50.82779,
      "long": 4.377038
    },
    {
      "id": 11,
      "name": "Taylor Carpentier",
      "image": "https://picsum.photos/seed/user11/200",
      "lat": 50.837891,
      "long": 4.359418
    },
    {
      "id": 12,
      "name": "Robin Rousseau",
      "image": "https://picsum.photos/seed/user12/200",
      "lat": 50.831837,
      "long": 4.325873
    },
    {
      "id": 13,
      "name": "Chris Moreau",
      "image": "https://picsum.photos/seed/user13/200",
      "lat": 50.879413,
      "long": 4.373019
    },
    {
      "id": 14,
      "name": "Jordan DeSmet",
      "image": "https://picsum.photos/seed/user14/200",
      "lat": 50.836978,
      "long": 4.359841
    },
    {
      "id": 15,
      "name": "Robin Jansen",
      "image": "https://picsum.photos/seed/user15/200",
      "lat": 50.842511,
      "long": 4.33427
    },
    {
      "id": 16,
      "name": "Jamie Martens",
      "image": "https://picsum.photos/seed/user16/200",
      "lat": 50.856848,
      "long": 4.331968
    },
    {
      "id": 17,
      "name": "Chris Jansen",
      "image": "https://picsum.photos/seed/user17/200",
      "lat": 50.848036,
      "long": 4.337897
    },
    {
      "id": 18,
      "name": "Elliot Dubois",
      "image": "https://picsum.photos/seed/user18/200",
      "lat": 50.861377,
      "long": 4.372271
    },
    {
      "id": 19,
      "name": "Sam Dubois",
      "image": "https://picsum.photos/seed/user19/200",
      "lat": 50.869608,
      "long": 4.370003
    },
    {
      "id": 20,
      "name": "Devin Laurent",
      "image": "https://picsum.photos/seed/user20/200",
      "lat": 50.824271,
      "long": 4.376488
    },
    {
      "id": 21,
      "name": "Skyler Simons",
      "image": "https://picsum.photos/seed/user21/200",
      "lat": 50.833058,
      "long": 4.351654
    },
    {
      "id": 22,
      "name": "Quinn Peeters",
      "image": "https://picsum.photos/seed/user22/200",
      "lat": 50.836193,
      "long": 4.336498
    },
    {
      "id": 23,
      "name": "Elliot Carpentier",
      "image": "https://picsum.photos/seed/user23/200",
      "lat": 50.836064,
      "long": 4.356775
    },
    {
      "id": 24,
      "name": "Skyler DeSmet",
      "image": "https://picsum.photos/seed/user24/200",
      "lat": 50.84202,
      "long": 4.38154
    },
    {
      "id": 25,
      "name": "Casey Colin",
      "image": "https://picsum.photos/seed/user25/200",
      "lat": 50.849911,
      "long": 4.367047
    },
    {
      "id": 26,
      "name": "Jordan Peeters",
      "image": "https://picsum.photos/seed/user26/200",
      "lat": 50.857947,
      "long": 4.369225
    },
    {
      "id": 27,
      "name": "Avery Leclerc",
      "image": "https://picsum.photos/seed/user27/200",
      "lat": 50.824112,
      "long": 4.344597
    },
    {
      "id": 28,
      "name": "Quinn Colin",
      "image": "https://picsum.photos/seed/user28/200",
      "lat": 50.835385,
      "long": 4.354894
    },
    {
      "id": 29,
      "name": "Alex Willems",
      "image": "https://picsum.photos/seed/user29/200",
      "lat": 50.861203,
      "long": 4.353918
    },
    {
      "id": 30,
      "name": "Jamie Simons",
      "image": "https://picsum.photos/seed/user30/200",
      "lat": 50.826993,
      "long": 4.347786
    },
    {
      "id": 31,
      "name": "Quinn Dupont",
      "image": "https://picsum.photos/seed/user31/200",
      "lat": 50.877529,
      "long": 4.374251
    },
    {
      "id": 32,
      "name": "Jamie Colin",
      "image": "https://picsum.photos/seed/user32/200",
      "lat": 50.866018,
      "long": 4.352161
    },
    {
      "id": 33,
      "name": "Jordan Moreau",
      "image": "https://picsum.photos/seed/user33/200",
      "lat": 50.8708,
      "long": 4.35216
    },
    {
      "id": 34,
      "name": "Morgan Peeters",
      "image": "https://picsum.photos/seed/user34/200",
      "lat": 50.842735,
      "long": 4.331393
    },
    {
      "id": 35,
      "name": "Blake Dupont",
      "image": "https://picsum.photos/seed/user35/200",
      "lat": 50.856237,
      "long": 4.351016
    },
    {
      "id": 36,
      "name": "Jordan VanDen",
      "image": "https://picsum.photos/seed/user36/200",
      "lat": 50.873023,
      "long": 4.3716
    },
    {
      "id": 37,
      "name": "Drew Dubois",
      "image": "https://picsum.photos/seed/user37/200",
      "lat": 50.823776,
      "long": 4.374381
    },
    {
      "id": 38,
      "name": "Taylor Martens",
      "image": "https://picsum.photos/seed/user38/200",
      "lat": 50.864214,
      "long": 4.370661
    },
    {
      "id": 39,
      "name": "Elliot Peeters",
      "image": "https://picsum.photos/seed/user39/200",
      "lat": 50.828003,
      "long": 4.350217
    },
    {
      "id": 40,
      "name": "Elliot Jansen",
      "image": "https://picsum.photos/seed/user40/200",
      "lat": 50.836203,
      "long": 4.374046
    },
    {
      "id": 41,
      "name": "Avery Lambert",
      "image": "https://picsum.photos/seed/user41/200",
      "lat": 50.876035,
      "long": 4.367016
    },
    {
      "id": 42,
      "name": "Morgan Moreau",
      "image": "https://picsum.photos/seed/user42/200",
      "lat": 50.84424,
      "long": 4.362001
    },
    {
      "id": 43,
      "name": "Robin Bourgeois",
      "image": "https://picsum.photos/seed/user43/200",
      "lat": 50.874277,
      "long": 4.348789
    },
    {
      "id": 44,
      "name": "Chris Dubois",
      "image": "https://picsum.photos/seed/user44/200",
      "lat": 50.824142,
      "long": 4.322962
    },
    {
      "id": 45,
      "name": "Elliot Dubois",
      "image": "https://picsum.photos/seed/user45/200",
      "lat": 50.855606,
      "long": 4.322131
    },
    {
      "id": 46,
      "name": "Sam Dubois",
      "image": "https://picsum.photos/seed/user46/200",
      "lat": 50.824344,
      "long": 4.323585
    },
    {
      "id": 47,
      "name": "Pat Martens",
      "image": "https://picsum.photos/seed/user47/200",
      "lat": 50.851149,
      "long": 4.338409
    },
    {
      "id": 48,
      "name": "Cameron Lambert",
      "image": "https://picsum.photos/seed/user48/200",
      "lat": 50.852654,
      "long": 4.365101
    },
    {
      "id": 49,
      "name": "Skyler Rousseau",
      "image": "https://picsum.photos/seed/user49/200",
      "lat": 50.84866,
      "long": 4.368777
    },
    {
      "id": 50,
      "name": "Avery Lambert",
      "image": "https://picsum.photos/seed/user50/200",
      "lat": 50.82596,
      "long": 4.361239
    }
  ]